City_ID,City,Lat,Lng,Max Temp,Humidity,Cloudiness,Wind Speed,Country,Date
0,sao joao da barra,-21.6403,-41.0511,80.69,86,89,4.47,BR,2023-04-01 22:45:19
1,broome,42.2506,-75.833,54.7,69,75,18.41,US,2023-04-01 22:45:19
2,birjand,32.8663,59.2211,59.47,26,20,4.61,IR,2023-04-01 22:45:19
3,kapaa,22.0752,-159.319,75.52,84,100,13.8,US,2023-04-01 22:45:19
4,bluff,-46.6,168.3333,55.8,67,100,15.59,NZ,2023-04-01 22:45:19
5,port augusta,-32.5,137.7667,59.85,45,0,7.18,AU,2023-04-01 22:45:19
6,pacific grove,36.6177,-121.9166,66.38,64,0,12.66,US,2023-04-01 22:45:19
7,ulladulla,-35.35,150.4667,59.77,89,100,6.49,AU,2023-04-01 22:45:19
8,talnakh,69.4865,88.3972,20.21,94,100,18.32,RU,2023-04-01 22:45:19
9,bethel,41.3712,-73.414,70.65,65,23,9.35,US,2023-04-01 22:45:20
10,albany,42.6001,-73.9662,63.91,71,15,8.01,US,2023-04-01 22:45:15
11,provideniya,64.3833,-173.3,18.01,87,98,9.01,RU,2023-04-01 22:45:20
12,namibe,-15.1961,12.1522,75.18,84,98,6.89,AO,2023-04-01 22:45:20
13,punta arenas,-53.15,-70.9167,48.31,76,75,19.57,CL,2023-04-01 22:45:20
14,arraial do cabo,-22.9661,-42.0278,76.26,88,1,11.16,BR,2023-04-01 22:40:48
15,honningsvag,70.9821,25.9704,28.15,74,100,20.71,NO,2023-04-01 22:45:20
16,berezovyy,51.6667,135.7,38.39,75,81,1.32,RU,2023-04-01 22:45:20
17,port elizabeth,-33.918,25.5701,66.49,96,0,8.05,ZA,2023-04-01 22:45:20
18,grenaa,56.4158,10.8783,37.94,78,2,13.96,DK,2023-04-01 22:45:20
19,mataura,-46.1927,168.8643,55.47,98,100,4.12,NZ,2023-04-01 22:45:21
20,manzhouli,49.6,117.4333,33.48,66,84,8.03,CN,2023-04-01 22:45:21
21,stornoway,58.2093,-6.3865,45.03,89,100,4.61,GB,2023-04-01 22:45:21
22,khatanga,71.9667,102.5,19.81,92,100,20.29,RU,2023-04-01 22:45:21
23,rikitea,-23.1203,-134.9692,80.53,80,27,16.22,PF,2023-04-01 22:45:21
24,trelew,-43.249,-65.3051,71.73,24,74,12.12,AR,2023-04-01 22:45:21
25,georgetown,5.4112,100.3354,82.33,94,20,4.61,MY,2023-04-01 22:45:21
26,novoagansk,61.9449,76.6625,29.59,81,100,16.96,RU,2023-04-01 22:45:21
27,tasiilaq,65.6145,-37.6368,28.56,85,100,2.39,GL,2023-04-01 22:45:21
28,castro,-24.7911,-50.0119,67.28,81,61,3.06,BR,2023-04-01 22:45:21
29,busselton,-33.65,115.3333,57.29,91,2,7.81,AU,2023-04-01 22:45:22
30,vegreville,53.5001,-112.0518,30.25,80,97,3.44,CA,2023-04-01 22:45:22
31,bereda,43.2686,-7.5406,35.15,100,22,1.05,ES,2023-04-01 22:45:22
32,priladozhskiy,59.85,31.4833,26.02,94,100,6.11,RU,2023-04-01 22:45:22
33,norman wells,65.282,-126.8329,14.04,62,75,0.0,CA,2023-04-01 22:45:22
34,fortuna,40.5982,-124.1573,50.94,83,100,3.0,US,2023-04-01 22:45:22
35,ribeira grande,38.5167,-28.7,63.77,95,81,18.01,PT,2023-04-01 22:45:22
36,guerrero negro,27.9769,-114.0611,65.08,51,0,18.95,MX,2023-04-01 22:45:22
37,hilo,19.7297,-155.09,85.28,75,75,11.5,US,2023-04-01 22:45:22
38,chokurdakh,70.6333,147.9167,-18.85,98,99,7.74,RU,2023-04-01 22:45:22
39,hamilton,39.1834,-84.5333,43.59,75,100,21.85,US,2023-04-01 22:45:22
40,isla mujeres,21.2311,-86.731,82.45,72,1,10.4,MX,2023-04-01 22:45:22
41,qaanaaq,77.484,-69.3632,-12.89,68,5,5.91,GL,2023-04-01 22:45:22
42,taoudenni,22.6783,-3.9836,83.43,7,0,9.98,ML,2023-04-01 22:45:23
43,sobolevo,54.4299,31.8996,44.85,92,100,13.04,RU,2023-04-01 22:45:23
44,kodinsk,58.6881,99.1844,1.81,98,26,1.7,RU,2023-04-01 22:45:23
45,akdepe,42.0551,59.3788,51.89,73,100,17.13,TM,2023-04-01 22:45:23
46,torbay,47.6666,-52.7314,35.28,66,75,9.22,CA,2023-04-01 22:45:23
47,hermanus,-34.4187,19.2345,60.8,88,1,8.77,ZA,2023-04-01 22:45:23
48,shiyan,32.6475,110.7781,58.17,86,4,3.4,CN,2023-04-01 22:45:23
49,saint-philippe,-21.3585,55.7679,74.79,83,45,11.39,RE,2023-04-01 22:45:23
50,longyearbyen,78.2186,15.6401,10.24,72,75,6.91,SJ,2023-04-01 22:45:23
51,clyde river,70.4692,-68.5914,-10.97,77,20,10.36,CA,2023-04-01 22:45:23
52,pisco,-13.7,-76.2167,78.85,78,0,20.71,PE,2023-04-01 22:43:09
53,victoria,22.2855,114.1577,71.94,92,99,11.01,HK,2023-04-01 22:42:53
54,codrington,-38.2667,141.9667,56.95,65,60,1.28,AU,2023-04-01 22:45:24
55,new norfolk,-42.7826,147.0587,58.5,74,100,1.01,AU,2023-04-01 22:45:24
56,evensk,61.95,159.2333,22.86,93,100,6.24,RU,2023-04-01 22:45:24
57,umea,63.8284,20.2597,25.92,80,0,5.75,SE,2023-04-01 22:45:24
58,avarua,-21.2078,-159.775,84.25,74,75,8.05,CK,2023-04-01 22:45:24
59,ushuaia,-54.8,-68.3,46.06,66,40,10.36,AR,2023-04-01 22:45:24
60,cherskiy,68.75,161.3,-15.66,97,100,4.16,RU,2023-04-01 22:45:24
61,bengkulu,-3.8004,102.2655,73.47,88,97,4.29,ID,2023-04-01 22:45:24
62,luderitz,-26.6481,15.1594,61.07,90,16,6.89,NA,2023-04-01 22:45:24
63,ponta do sol,32.6667,-17.1,65.12,57,0,5.91,PT,2023-04-01 22:45:24
64,cape town,-33.9258,18.4232,67.37,80,0,13.8,ZA,2023-04-01 22:45:03
65,paamiut,61.994,-49.6678,25.61,68,100,11.39,GL,2023-04-01 22:45:24
66,rundu,-17.9333,19.7667,67.87,67,82,5.28,NA,2023-04-01 22:45:24
67,shenzhen,22.5455,114.0683,71.83,94,96,6.69,CN,2023-04-01 22:45:24
68,smithers,54.7804,-127.1743,41.32,45,75,4.61,CA,2023-04-01 22:45:24
69,nemuro,43.3236,145.575,33.55,77,29,16.75,JP,2023-04-01 22:45:25
70,san juan,-31.5375,-68.5364,73.0,35,73,8.19,AR,2023-04-01 22:45:25
71,aljezur,37.3191,-8.8033,59.79,94,56,11.65,PT,2023-04-01 22:45:25
72,atuona,-9.8,-139.0333,80.76,75,21,15.14,PF,2023-04-01 22:45:25
73,cayenne,4.9333,-52.3333,77.04,83,75,5.75,GF,2023-04-01 22:45:25
74,makakilo city,21.3469,-158.0858,79.12,67,75,12.66,US,2023-04-01 22:45:25
75,kupang,-10.1667,123.5833,75.78,100,20,2.3,ID,2023-04-01 22:45:25
76,bambous virieux,-20.3428,57.7575,77.25,83,20,3.44,MU,2023-04-01 22:45:25
77,awbari,26.5921,12.7805,68.29,13,0,10.49,LY,2023-04-01 22:45:25
78,andra,62.5147,65.8878,35.62,99,100,13.0,RU,2023-04-01 22:45:25
79,akranes,64.3218,-22.0749,39.76,81,100,26.31,IS,2023-04-01 22:41:57
80,bandarbeyla,9.4942,50.8122,80.42,72,18,2.73,SO,2023-04-01 22:45:25
81,ahuimanu,21.4447,-157.8378,80.31,74,75,12.66,US,2023-04-01 22:45:25
82,mahaplag,10.5788,124.9753,78.13,89,89,2.21,PH,2023-04-01 22:45:25
83,east london,-33.0153,27.9116,68.36,85,50,10.0,ZA,2023-04-01 22:45:25
84,leningradskiy,69.3833,178.4167,1.65,94,100,31.88,RU,2023-04-01 22:45:26
85,izumo,35.3667,132.7667,53.55,76,20,21.85,JP,2023-04-01 22:43:39
86,buckeye,33.3703,-112.5838,81.55,12,14,3.27,US,2023-04-01 22:41:17
87,nikolskoye,59.7035,30.7861,29.8,96,94,5.1,RU,2023-04-01 22:45:26
88,barrow,71.2906,-156.7887,1.42,92,100,8.05,US,2023-04-01 22:45:26
89,port macquarie,-31.4333,152.9167,70.9,72,32,8.95,AU,2023-04-01 22:45:26
90,caconda,-13.7333,15.0667,57.67,97,59,4.56,AO,2023-04-01 22:45:26
91,shakawe,-18.3667,21.85,68.0,78,64,4.14,BW,2023-04-01 22:45:26
92,cauas,47.5667,22.55,50.05,93,98,4.68,RO,2023-04-01 22:45:26
93,caravelas,-17.7125,-39.2481,78.87,77,1,9.01,BR,2023-04-01 22:45:26
94,mount gambier,-37.8333,140.7667,54.21,68,42,2.28,AU,2023-04-01 22:45:26
95,itacoatiara,-3.1431,-58.4442,74.52,97,98,0.89,BR,2023-04-01 22:45:26
96,upernavik,72.7868,-56.1549,-21.53,99,44,8.99,GL,2023-04-01 22:45:26
97,vanimo,-2.6741,141.3028,81.82,76,45,2.42,PG,2023-04-01 22:45:26
98,fort nelson,58.8053,-122.7002,28.94,62,100,5.75,CA,2023-04-01 22:43:09
99,hobart,-42.8794,147.3294,58.86,73,75,10.36,AU,2023-04-01 22:45:26
100,inuvik,68.3499,-133.7218,9.46,51,20,3.44,CA,2023-04-01 22:45:26
101,hasaki,35.7333,140.8333,58.21,58,61,14.34,JP,2023-04-01 22:44:21
102,butaritari,3.0707,172.7902,81.5,76,100,12.91,KI,2023-04-01 22:45:27
103,shellbrook,53.2168,-106.4011,29.43,92,99,9.53,CA,2023-04-01 22:43:11
104,tuatapere,-46.1333,167.6833,51.64,79,100,10.85,NZ,2023-04-01 22:45:27
105,otacilio costa,-27.4831,-50.1219,51.96,62,0,3.69,BR,2023-04-01 22:45:27
106,bathsheba,13.2167,-59.5167,79.41,78,40,19.57,BB,2023-04-01 22:45:27
107,wajir,1.7471,40.0573,83.46,60,6,15.37,KE,2023-04-01 22:45:27
108,tocopilla,-22.092,-70.1979,72.05,80,28,3.02,CL,2023-04-01 22:41:53
109,kanigoro,-8.13,112.219,72.72,91,100,3.31,ID,2023-04-01 22:45:27
110,pevek,69.7008,170.3133,-10.57,92,100,9.13,RU,2023-04-01 22:45:27
111,locri,38.2414,16.2623,59.32,80,100,9.91,IT,2023-04-01 22:45:27
112,mlalo,-4.9333,38.9333,75.07,93,37,5.03,TZ,2023-04-01 22:45:27
113,thompson,55.7435,-97.8558,19.56,32,40,5.75,CA,2023-04-01 22:45:18
114,san patricio,28.017,-97.5169,87.75,56,99,13.8,US,2023-04-01 22:45:27
115,gravelbourg,49.8834,-106.5512,41.27,93,79,9.17,CA,2023-04-01 22:45:27
116,kalabo,-14.97,22.6814,64.98,94,84,4.5,ZM,2023-04-01 22:45:27
117,ajaccio,42.0,8.9167,55.45,67,100,12.66,FR,2023-04-01 22:45:24
118,buin,-33.7333,-70.75,84.52,21,11,2.66,CL,2023-04-01 22:45:27
119,vaini,-21.2,-175.2,79.59,77,11,16.4,TO,2023-04-01 22:45:27
120,te anau,-45.4167,167.7167,50.52,92,91,1.74,NZ,2023-04-01 22:45:27
121,buchanan,5.8808,-10.0467,79.36,88,86,5.68,LR,2023-04-01 22:45:28
122,nanortalik,60.1432,-45.2371,25.52,84,15,5.08,GL,2023-04-01 22:45:28
123,lebu,-37.6167,-73.65,57.78,94,99,9.26,CL,2023-04-01 22:45:28
124,dingle,10.9995,122.6711,77.63,85,100,4.81,PH,2023-04-01 22:45:28
125,powell river,49.8496,-124.5361,51.44,43,75,8.05,CA,2023-04-01 22:43:08
126,port alfred,-33.5906,26.891,68.18,88,41,1.99,ZA,2023-04-01 22:45:28
127,valparaiso,-33.0393,-71.6273,66.99,62,0,5.75,CL,2023-04-01 22:42:06
128,kahului,20.8947,-156.47,86.02,45,20,19.57,US,2023-04-01 22:45:28
129,puerto escondido,15.85,-97.0667,86.83,66,40,9.22,MX,2023-04-01 22:45:28
130,hovd,48.0056,91.6419,7.39,42,100,4.97,MN,2023-04-01 22:45:28
131,kibungo,-2.1597,30.5427,63.52,97,41,1.83,RW,2023-04-01 22:45:28
132,moose factory,51.2585,-80.6094,14.0,48,0,10.36,CA,2023-04-01 22:45:28
133,manakara,-22.1333,48.0167,75.22,85,100,3.56,MG,2023-04-01 22:45:28
134,mehriz,31.5917,54.4318,50.5,22,0,2.35,IR,2023-04-01 22:45:28
135,panaba,21.2833,-88.2667,93.2,29,23,15.21,MX,2023-04-01 22:45:28
136,port hueneme,34.1478,-119.1951,74.46,60,0,13.8,US,2023-04-01 22:45:28
137,carnarvon,-24.8667,113.6333,74.55,78,56,12.17,AU,2023-04-01 22:45:28
138,barrhead,55.7992,-4.3929,43.83,91,75,3.44,GB,2023-04-01 22:45:29
139,noumea,-22.2763,166.4572,84.18,99,21,5.77,NC,2023-04-01 22:41:28
140,tshikapa,-6.4167,20.8,69.73,94,99,1.19,CD,2023-04-01 22:41:56
141,puerto vallarta,20.6204,-105.2307,76.91,73,75,11.5,MX,2023-04-01 22:40:45
142,camacha,33.0833,-16.3333,62.02,82,40,8.05,PT,2023-04-01 22:45:29
143,kavieng,-2.5744,150.7967,81.72,78,100,5.44,PG,2023-04-01 22:45:29
144,san pedro de uraba,8.2752,-76.3764,79.14,80,91,8.28,CO,2023-04-01 22:45:29
145,bredasdorp,-34.5322,20.0403,60.64,95,0,4.41,ZA,2023-04-01 22:45:29
146,nova olimpia,-14.7972,-57.2881,76.1,87,60,3.38,BR,2023-04-01 22:42:43
147,nome,64.5011,-165.4064,30.27,93,100,16.11,US,2023-04-01 22:45:29
148,skibbereen,51.55,-9.2667,42.12,80,15,8.23,IE,2023-04-01 22:45:29
149,kodiak,57.79,-152.4072,38.71,41,0,26.46,US,2023-04-01 22:43:07
150,mogadishu,2.0371,45.3438,81.37,76,40,9.62,SO,2023-04-01 22:43:32
151,sinop,41.7711,34.8709,49.37,66,100,10.6,TR,2023-04-01 22:44:34
152,esperance,-33.8667,121.9,64.31,85,100,12.03,AU,2023-04-01 22:45:29
153,padang,-0.9492,100.3543,75.65,84,100,3.29,ID,2023-04-01 22:45:29
154,sulangan,11.1373,123.7228,80.78,78,100,9.15,PH,2023-04-01 22:45:30
155,karratha,-20.7377,116.8463,80.35,75,71,5.3,AU,2023-04-01 22:45:00
156,katsuura,35.1333,140.3,58.71,68,100,14.56,JP,2023-04-01 22:45:30
157,tiksi,71.6872,128.8694,3.22,80,97,26.49,RU,2023-04-01 22:45:30
158,mahebourg,-20.4081,57.7,77.29,83,20,3.44,MU,2023-04-01 22:45:30
159,sabha,27.0377,14.4283,68.07,12,0,10.96,LY,2023-04-01 22:45:30
160,jamestown,42.097,-79.2353,38.52,93,100,28.77,US,2023-04-01 22:45:30
161,vila velha,-20.3297,-40.2925,80.55,89,40,2.3,BR,2023-04-01 22:45:07
162,lorengau,-2.0226,147.2712,83.28,73,89,4.85,PG,2023-04-01 22:45:30
163,sakaiminato,35.55,133.2333,53.58,76,20,19.57,JP,2023-04-01 22:45:30
164,kununurra,-15.7667,128.7333,78.78,89,22,3.44,AU,2023-04-01 22:43:03
165,puerto ayora,-0.7393,-90.3518,85.96,90,93,5.99,EC,2023-04-01 22:45:30
166,kovernino,57.1253,43.8142,37.49,93,100,6.62,RU,2023-04-01 22:45:30
167,omsukchan,62.5333,155.8,17.82,91,100,2.35,RU,2023-04-01 22:45:30
168,dikson,73.5069,80.5464,2.44,100,100,3.15,RU,2023-04-01 22:45:31
169,bollnas,61.3482,16.3946,24.08,95,69,3.74,SE,2023-04-01 22:45:31
170,olga,43.7444,135.2892,39.69,63,2,0.51,RU,2023-04-01 22:45:31
171,nizhniy tsasuchey,50.5167,115.1333,27.19,48,100,19.75,RU,2023-04-01 22:45:31
172,vila do maio,15.1333,-23.2167,84.99,76,0,12.21,CV,2023-04-01 22:45:31
173,tuktoyaktuk,69.4541,-133.0374,-4.0,65,0,10.36,CA,2023-04-01 22:45:31
174,salalah,17.0151,54.0924,82.49,83,75,9.22,OM,2023-04-01 22:45:31
175,saint george,37.1041,-113.5841,67.42,25,0,4.61,US,2023-04-01 22:45:31
176,santa maria,-29.6842,-53.8069,65.5,59,0,3.44,BR,2023-04-01 22:45:31
177,almonte,37.2647,-6.5167,63.61,85,46,12.93,ES,2023-04-01 22:45:15
178,itarema,-2.9248,-39.9167,78.04,82,100,6.35,BR,2023-04-01 22:45:31
179,lensk,60.7253,114.9278,2.39,99,84,3.18,RU,2023-04-01 22:45:31
180,linxia,35.6003,103.2064,36.5,86,100,3.56,CN,2023-04-01 22:45:31
181,zyryanka,65.75,150.85,-1.77,94,100,16.58,RU,2023-04-01 22:45:31
182,laguna,38.421,-121.4238,67.42,55,40,10.36,US,2023-04-01 22:45:31
183,yellowknife,62.456,-114.3525,12.72,62,100,17.27,CA,2023-04-01 22:40:46
184,san pedro,14.35,121.0167,79.83,85,20,2.3,PH,2023-04-01 22:45:32
185,simpang,-1.2667,104.0833,73.11,98,100,1.5,ID,2023-04-01 22:45:32
186,zhigansk,66.7697,123.3711,-7.1,98,96,16.98,RU,2023-04-01 22:45:32
187,palmer,42.1584,-72.3287,63.95,64,0,11.5,US,2023-04-01 22:45:32
188,severo-kurilsk,50.6789,156.125,32.18,90,58,17.45,RU,2023-04-01 22:45:32
189,karoi,-16.8099,29.6925,60.39,92,94,6.33,ZW,2023-04-01 22:45:32
190,itaituba,-4.2761,-55.9836,74.57,98,100,1.95,BR,2023-04-01 22:45:32
191,pangnirtung,66.1451,-65.7125,-0.67,83,73,7.7,CA,2023-04-01 22:45:32
192,airai,-8.9266,125.4092,62.76,91,100,1.95,TL,2023-04-01 22:45:32
193,saint-pierre,-21.3393,55.4781,75.56,83,0,5.75,RE,2023-04-01 22:45:32
194,mao,39.8885,4.2658,48.76,100,75,26.46,ES,2023-04-01 22:45:32
195,souillac,-20.5167,57.5167,77.38,83,20,3.44,MU,2023-04-01 22:45:32
196,mangrol,21.1167,70.1167,74.44,79,45,8.9,IN,2023-04-01 22:45:32
197,rio grande,-32.035,-52.0986,68.11,65,14,12.59,BR,2023-04-01 22:45:32
198,arlit,18.7369,7.3853,73.13,6,1,13.11,NE,2023-04-01 22:45:32
199,saldanha,-33.0117,17.9442,60.85,90,0,9.78,ZA,2023-04-01 22:43:50
200,asau,46.4333,26.4,45.52,95,100,4.16,RO,2023-04-01 22:45:33
201,nichinan,31.6,131.3667,64.08,81,100,16.82,JP,2023-04-01 22:45:33
202,freeport,40.6576,-73.5832,71.58,81,0,23.02,US,2023-04-01 22:43:12
203,agua buena,7.8167,-80.4,84.78,55,100,19.26,PA,2023-04-01 22:45:33
204,hualmay,-11.0964,-77.6139,76.8,81,100,8.14,PE,2023-04-01 22:45:33
205,nuevo progreso,23.1667,-97.95,83.46,65,53,4.0,MX,2023-04-01 22:45:33
206,lata,40.1629,-8.3327,56.91,98,93,3.74,PT,2023-04-01 22:45:33
207,mar del plata,-38.0023,-57.5575,64.09,71,83,3.0,AR,2023-04-01 22:45:33
208,iqaluit,63.7506,-68.5145,4.73,77,20,2.3,CA,2023-04-01 22:45:33
209,dunedin,-45.8742,170.5036,57.79,87,59,8.99,NZ,2023-04-01 22:42:45
210,great falls,47.5002,-111.3008,48.42,66,100,27.63,US,2023-04-01 22:42:25
211,lamar,33.6668,-95.5836,71.51,27,0,5.75,US,2023-04-01 22:45:33
212,saskylakh,71.9167,114.0833,17.62,88,100,16.08,RU,2023-04-01 22:45:33
213,two hills,53.7169,-111.7518,30.43,89,100,3.91,CA,2023-04-01 22:45:18
214,najran,17.4924,44.1277,72.25,36,68,6.29,SA,2023-04-01 22:45:33
215,ostrovnoy,68.0531,39.5131,18.75,93,92,11.18,RU,2023-04-01 22:45:33
216,bayangol,50.6977,103.4656,3.94,59,90,7.58,RU,2023-04-01 22:45:34
217,irbit,57.6705,63.071,34.0,84,97,8.1,RU,2023-04-01 22:45:34
218,daokou,35.5639,114.5058,55.08,67,69,4.63,CN,2023-04-01 22:45:34
219,berekum,7.4534,-2.584,77.5,66,92,7.34,GH,2023-04-01 22:45:34
220,vila franca do campo,37.7167,-25.4333,64.81,92,100,17.09,PT,2023-04-01 22:45:34
221,bansi,27.1833,82.9333,64.96,71,9,2.82,IN,2023-04-01 22:45:34
222,matagami,49.7502,-77.6328,15.91,48,0,21.85,CA,2023-04-01 22:45:34
223,rurrenabaque,-14.4413,-67.5278,74.97,94,69,0.51,BO,2023-04-01 22:45:34
224,balkanabat,39.5108,54.3671,46.17,74,99,12.03,TM,2023-04-01 22:45:34
225,ilulissat,69.2167,-51.1,3.22,78,20,6.91,GL,2023-04-01 22:45:34
226,mundwa,27.0667,73.8167,72.86,40,22,6.04,IN,2023-04-01 22:45:35
227,illapel,-31.6308,-71.1653,72.03,47,24,4.88,CL,2023-04-01 22:45:35
228,lavrentiya,65.5833,-171.0,24.42,86,100,7.7,RU,2023-04-01 22:45:35
229,cap-chat,49.1001,-66.6821,32.0,100,100,19.57,CA,2023-04-01 22:42:25
230,galesong,-5.3166,119.3661,73.42,84,99,4.72,ID,2023-04-01 22:45:35
231,eureka,40.8021,-124.1637,52.75,88,100,3.0,US,2023-04-01 22:45:35
232,leiyang,26.4024,112.8591,66.72,94,67,5.28,CN,2023-04-01 22:45:35
233,baijiantan,45.6333,85.1833,29.1,28,0,2.89,CN,2023-04-01 22:45:35
234,tibati,6.4667,12.6333,76.82,48,62,4.32,CM,2023-04-01 22:45:35
235,port hardy,50.6996,-127.4199,44.78,61,75,3.44,CA,2023-04-01 22:45:35
236,hambantota,6.1241,81.1185,77.27,85,41,2.8,LK,2023-04-01 22:45:35
237,faanui,-16.4833,-151.75,82.38,72,0,7.38,PF,2023-04-01 22:45:35
238,carbonia,39.1672,8.5222,52.75,86,11,7.43,IT,2023-04-01 22:45:35
239,ankazoabo,-22.2833,44.5167,69.04,94,95,4.12,MG,2023-04-01 22:45:35
240,hammerfest,70.6634,23.6821,25.25,86,100,10.36,NO,2023-04-01 22:45:35
241,xiongzhou,25.1167,114.3,66.76,97,99,0.83,CN,2023-04-01 22:45:36
242,mayskiy,47.6931,40.1025,40.41,75,4,6.69,RU,2023-04-01 22:45:36
243,fairbanks,64.8378,-147.7164,29.08,51,40,9.22,US,2023-04-01 22:44:46
244,myaundzha,63.0494,147.1858,17.02,92,100,2.86,RU,2023-04-01 22:45:36
245,manjacaze,-24.7117,33.8828,68.32,97,1,4.0,MZ,2023-04-01 22:45:36
246,tezu,27.9167,96.1667,63.0,96,100,1.79,IN,2023-04-01 22:45:36
247,portland,45.5234,-122.6762,51.82,74,40,16.11,US,2023-04-01 22:44:20
248,northam,51.0333,-4.2167,46.62,88,28,14.47,GB,2023-04-01 22:45:36
249,saint-augustin,51.226,-58.6502,29.32,87,75,6.71,CA,2023-04-01 22:45:36
250,storozhevaya,43.8789,41.4514,34.05,71,1,4.74,RU,2023-04-01 22:45:36
251,itoman,26.1247,127.6694,70.18,88,75,26.46,JP,2023-04-01 22:45:36
252,luanda,-8.8368,13.2343,80.6,83,40,2.3,AO,2023-04-01 22:45:36
253,linjiang,41.8069,126.9078,52.41,61,31,1.77,CN,2023-04-01 22:45:36
254,brandon,27.9378,-82.2859,83.28,71,75,10.36,US,2023-04-01 22:41:03
255,matara,5.9485,80.5353,76.05,89,72,2.82,LK,2023-04-01 22:45:37
256,aswan,24.0934,32.907,65.5,20,0,0.0,EG,2023-04-01 22:45:37
257,hvide sande,56.0045,8.1294,33.1,73,1,15.61,DK,2023-04-01 22:45:37
258,teguldet,57.3064,88.1667,6.66,96,36,4.32,RU,2023-04-01 22:45:37
259,baghdad,33.3406,44.4009,49.91,53,0,0.0,IQ,2023-04-01 22:45:37
260,dwarka,22.2394,68.9678,75.61,71,4,10.2,IN,2023-04-01 22:45:37
261,rawson,-43.3002,-65.1023,70.32,33,74,11.3,AR,2023-04-01 22:45:37
262,petropavlovsk-kamchatskiy,53.0452,158.6483,32.59,69,0,4.47,RU,2023-04-01 22:45:37
263,pitimbu,-7.4706,-34.8086,81.19,75,100,10.02,BR,2023-04-01 22:45:37
264,bom jesus,-9.0744,-44.3586,81.77,43,64,4.92,BR,2023-04-01 22:45:37
265,the valley,18.217,-63.0578,78.94,73,40,16.11,AI,2023-04-01 22:45:37
266,shimoda,34.6667,138.95,55.11,80,97,17.18,JP,2023-04-01 22:45:37
267,egvekinot,66.3167,-179.1667,10.51,91,100,4.59,RU,2023-04-01 22:45:38
268,bakchar,57.0186,82.0711,21.33,86,100,7.25,RU,2023-04-01 22:45:38
269,goderich,43.7501,-81.7165,34.92,86,100,19.57,CA,2023-04-01 22:45:38
270,micheweni,-4.9667,39.8333,81.14,80,52,9.19,TZ,2023-04-01 22:45:38
271,mutoko,-17.397,32.2268,57.94,94,87,1.03,ZW,2023-04-01 22:45:38
272,quepos,9.4236,-84.1652,83.75,66,9,3.74,CR,2023-04-01 22:45:38
273,kaitangata,-46.2817,169.8464,52.93,93,87,10.71,NZ,2023-04-01 22:45:38
274,tazovskiy,67.4667,78.7,33.1,98,100,16.89,RU,2023-04-01 22:45:38
275,kailua,21.4022,-157.7394,80.58,78,100,5.99,US,2023-04-01 22:45:38
276,severo-yeniseyskiy,60.3725,93.0408,3.78,92,42,6.98,RU,2023-04-01 22:45:38
277,ust-kuyga,70.0167,135.6,-17.19,100,99,9.01,RU,2023-04-01 22:45:38
278,trimbak,19.9333,73.55,63.99,56,30,2.62,IN,2023-04-01 22:45:38
279,hithadhoo,-0.6,73.0833,81.79,71,93,5.86,MV,2023-04-01 22:45:39
280,son la,21.3167,103.9,66.11,62,1,2.77,VN,2023-04-01 22:45:39
281,mairipora,-23.3186,-46.5867,73.56,78,75,5.75,BR,2023-04-01 22:45:39
282,aklavik,68.2191,-135.0107,8.6,52,20,2.3,CA,2023-04-01 22:45:39
283,bud,39.447,-86.1758,42.91,84,100,16.51,US,2023-04-01 22:45:39
284,bitkine,11.9801,18.2138,82.0,13,14,0.96,TD,2023-04-01 22:45:39
285,wanning,18.8003,110.3967,77.29,85,65,7.56,CN,2023-04-01 22:45:39
286,yar-sale,66.8333,70.8333,33.17,99,100,18.41,RU,2023-04-01 22:45:39
287,mitu,1.1983,-70.1733,72.99,95,100,1.07,CO,2023-04-01 22:45:39
288,gallup,35.5281,-108.7426,60.64,9,0,14.97,US,2023-04-01 22:45:39
289,ozernovskiy,51.5,156.5167,27.41,96,28,13.51,RU,2023-04-01 22:45:39
290,bonthe,7.5264,-12.505,78.42,89,68,6.24,SL,2023-04-01 22:45:39
291,mersing,2.4312,103.8405,75.11,94,20,4.61,MY,2023-04-01 22:45:39
292,murgab,37.4966,61.9714,53.47,76,100,13.8,TM,2023-04-01 22:45:39
293,thinadhoo,0.5333,72.9333,81.41,76,97,4.27,MV,2023-04-01 22:45:39
294,ilinskiy,55.619,38.1182,43.52,100,100,7.0,RU,2023-04-01 22:45:40
295,kysyl-syr,63.8986,122.7617,-4.99,98,81,6.53,RU,2023-04-01 22:45:40
296,zalesovo,53.9939,84.7431,9.81,85,19,4.38,RU,2023-04-01 22:45:40
297,touros,-5.1989,-35.4608,80.13,79,98,10.51,BR,2023-04-01 22:42:53
298,kruisfontein,-34.0033,24.7314,58.46,76,0,4.29,ZA,2023-04-01 22:45:40
299,juneau,58.3019,-134.4197,42.22,82,75,8.05,US,2023-04-01 22:41:07
300,saint-paul,-21.0096,55.2707,78.89,94,47,1.01,RE,2023-04-01 22:45:40
301,mujiayingzi,42.1167,118.7833,48.97,58,90,6.82,CN,2023-04-01 22:45:40
302,amapa,1.0,-52.0,71.76,98,81,2.44,BR,2023-04-01 22:45:40
303,nouadhibou,20.931,-17.0347,82.38,32,0,21.85,MR,2023-04-01 22:45:40
304,constitucion,-35.3333,-72.4167,61.57,76,67,14.2,CL,2023-04-01 22:45:40
305,colan,7.5873,-80.2296,83.3,56,100,16.75,PA,2023-04-01 22:45:40
306,mumbwa,-14.9783,27.0619,62.08,98,100,4.52,ZM,2023-04-01 22:45:40
307,tommot,58.9564,126.2925,5.09,87,99,6.04,RU,2023-04-01 22:45:40
308,tura,25.5198,90.2201,61.02,94,73,2.48,IN,2023-04-01 22:45:40
309,bahar,34.9072,48.4414,28.56,69,0,6.91,IR,2023-04-01 22:45:40
310,along,28.1667,94.7667,60.42,97,95,0.87,IN,2023-04-01 22:45:40
311,popondetta,-8.7537,148.2534,76.3,90,100,0.47,PG,2023-04-01 22:45:41
312,moron,-34.6534,-58.6198,66.09,74,12,5.99,AR,2023-04-01 22:45:41
313,tungor,53.3808,142.9564,35.62,84,26,10.4,RU,2023-04-01 22:45:41
314,san cristobal,7.7669,-72.225,66.38,97,100,2.64,VE,2023-04-01 22:44:07
315,cairns,-16.9167,145.7667,84.11,79,73,2.3,AU,2023-04-01 22:45:41
316,vila,42.0304,-8.1588,40.08,79,5,4.54,PT,2023-04-01 22:45:41
317,muzhi,65.3667,64.6667,35.24,87,100,19.37,RU,2023-04-01 22:45:41
318,kamina,-8.7386,24.9906,60.94,96,61,0.09,CD,2023-04-01 22:45:41
319,bugene,-1.5911,31.1403,54.01,96,46,2.15,TZ,2023-04-01 22:45:41
320,medford,42.3265,-122.8756,53.01,60,100,6.91,US,2023-04-01 22:45:41
321,honiara,-9.4333,159.95,83.64,74,98,1.41,SB,2023-04-01 22:45:41
322,port blair,11.6667,92.75,77.76,77,12,4.32,IN,2023-04-01 22:45:41
323,liku,-0.7275,119.8922,75.65,92,100,1.41,ID,2023-04-01 22:45:41
324,garissa,-0.4536,39.6401,81.45,70,31,15.97,KE,2023-04-01 22:45:42
325,george,-33.963,22.4617,54.95,100,100,2.3,ZA,2023-04-01 22:45:42
326,pemangkat,1.1667,108.9667,77.32,84,87,3.91,ID,2023-04-01 22:45:42
327,klaksvik,62.2266,-6.589,43.72,86,99,12.33,FO,2023-04-01 22:45:42
328,chuy,-33.6971,-53.4616,60.31,73,13,6.42,UY,2023-04-01 22:45:42
329,abnub,27.2696,31.1511,61.02,36,0,7.16,EG,2023-04-01 22:45:42
330,eston,51.1501,-108.7514,35.92,100,92,4.38,CA,2023-04-01 22:45:15
331,valentin gomez farias,28.2167,-106.5833,77.65,10,99,20.04,MX,2023-04-01 22:45:42
332,burnie,-41.0667,145.9167,57.94,76,99,8.16,AU,2023-04-01 22:45:42
333,cabo san lucas,22.8909,-109.9124,86.31,37,75,10.36,MX,2023-04-01 22:41:04
334,moyo,3.6609,31.7247,64.94,91,40,3.15,UG,2023-04-01 22:45:42
335,norman,35.2226,-97.4395,68.68,28,0,6.91,US,2023-04-01 22:45:42
336,sarana,56.4773,57.7259,38.91,93,100,2.51,RU,2023-04-01 22:45:42
337,policoro,40.2115,16.6726,60.42,53,70,7.0,IT,2023-04-01 22:45:42
338,nabire,-3.3667,135.4833,78.69,86,100,1.83,ID,2023-04-01 22:45:42
339,luau,-10.7073,22.2247,64.06,98,96,2.42,AO,2023-04-01 22:45:42
340,rayadrug,14.7,76.8667,74.43,59,66,8.99,IN,2023-04-01 22:45:42
341,petatlan,17.5167,-101.2667,89.4,33,51,5.88,MX,2023-04-01 22:45:42
342,marrakesh,31.6315,-8.0083,69.87,49,0,10.36,MA,2023-04-01 22:41:44
343,lompoc,34.6391,-120.4579,69.69,66,0,24.0,US,2023-04-01 22:43:23
344,bintulu,3.1667,113.0333,75.61,94,20,4.61,MY,2023-04-01 22:45:43
345,faya,18.3851,42.4509,59.11,85,73,6.33,SA,2023-04-01 22:45:43
346,ust-tsilma,65.441,52.1498,13.46,98,90,3.56,RU,2023-04-01 22:45:43
347,san vicente,-26.6167,-54.1333,59.22,47,0,3.33,AR,2023-04-01 22:45:43
348,watertown,42.3709,-71.1828,63.55,81,20,17.27,US,2023-04-01 22:42:22
349,salisbury,51.0693,-1.7957,48.65,78,100,9.22,GB,2023-04-01 22:44:54
350,baraut,29.1,77.2667,61.7,86,1,3.38,IN,2023-04-01 22:45:43
351,sundsvall,62.3913,17.3063,26.56,59,7,11.5,SE,2023-04-01 22:45:43
352,gunjur,13.2019,-16.7339,77.07,83,20,6.91,GM,2023-04-01 22:45:43
353,biak,-0.9131,122.8766,77.43,75,100,0.89,ID,2023-04-01 22:45:43
354,sitka,57.0531,-135.33,39.09,81,75,10.36,US,2023-04-01 22:45:43
355,youkounkoun,12.5333,-13.1333,86.67,15,0,1.25,GN,2023-04-01 22:45:43
356,patrocinio,-18.9439,-46.9925,68.29,84,99,2.71,BR,2023-04-01 22:45:43
357,chissamba,-12.1667,17.3333,63.23,95,100,1.97,AO,2023-04-01 22:45:43
358,bo phloi,14.3236,99.5161,75.79,77,36,4.47,TH,2023-04-01 22:45:43
359,walvis bay,-22.9575,14.5053,60.44,87,11,3.27,NA,2023-04-01 22:45:43
360,chatakonda,17.55,80.65,75.29,90,10,2.95,IN,2023-04-01 22:45:43
361,qaqortoq,60.7167,-46.0333,20.32,84,41,8.48,GL,2023-04-01 22:45:43
362,kieta,-6.2167,155.6333,83.79,70,86,3.47,PG,2023-04-01 22:45:44
363,cap malheureux,-19.9842,57.6142,76.46,78,4,1.99,MU,2023-04-01 22:45:44
364,srednekolymsk,67.45,153.6833,-7.46,92,100,9.62,RU,2023-04-01 22:45:44
365,tomohon,1.3346,124.8392,65.34,95,100,3.56,ID,2023-04-01 22:45:44
366,olafsvik,64.8945,-23.7142,37.09,93,85,25.19,IS,2023-04-01 22:45:44
367,nkhotakota,-12.9274,34.2961,70.07,92,100,6.04,MW,2023-04-01 22:45:44
368,palma,39.5694,2.6502,55.06,82,40,23.02,ES,2023-04-01 22:45:44
369,grindavik,63.8424,-22.4338,39.67,70,75,28.77,IS,2023-04-01 22:45:44
370,mattru,7.6244,-11.8332,78.69,83,58,2.98,SL,2023-04-01 22:45:44
371,tiete,-23.1019,-47.7147,73.69,75,47,7.0,BR,2023-04-01 22:45:44
372,lusambo,-4.9667,23.45,67.8,93,70,1.48,CD,2023-04-01 22:45:44
373,huimanguillo,17.85,-93.3833,89.42,56,18,4.43,MX,2023-04-01 22:45:44
374,jinchang,38.4953,102.1739,35.76,55,100,6.31,CN,2023-04-01 22:45:44
375,aloleng,16.1307,119.7824,79.75,77,99,6.42,PH,2023-04-01 22:45:44
376,shache,38.4167,77.2406,55.53,28,96,1.83,CN,2023-04-01 22:45:44
377,somanda,-3.3667,33.95,63.99,90,70,2.95,TZ,2023-04-01 22:45:44
378,tacna,-18.0056,-70.2483,75.4,61,0,9.22,PE,2023-04-01 22:43:17
379,mount isa,-20.7333,139.5,74.97,33,95,10.36,AU,2023-04-01 22:45:45
380,hope,33.6671,-93.5916,78.85,45,36,5.7,US,2023-04-01 22:45:45
381,santander jimenez,24.2167,-98.4667,86.67,51,98,14.92,MX,2023-04-01 22:45:45
382,okha,53.5739,142.9478,34.25,85,31,9.13,RU,2023-04-01 22:45:45
383,ulkan,57.243,107.3223,-4.16,100,40,2.33,RU,2023-04-01 22:45:45
384,grand gaube,-20.0064,57.6608,77.4,78,4,1.99,MU,2023-04-01 22:45:45
385,korem,12.5058,39.5228,57.09,70,100,2.82,ET,2023-04-01 22:45:45
386,bondo,3.8146,23.6866,70.72,75,61,2.62,CD,2023-04-01 22:45:45
387,novaya bryan,51.7159,108.2691,14.94,55,100,5.57,RU,2023-04-01 22:45:45
388,surt,31.2089,16.5887,71.19,27,2,12.75,LY,2023-04-01 22:45:45
389,vorobyevka,50.6451,40.9245,42.67,80,100,5.01,RU,2023-04-01 22:45:45
390,tilichiki,60.4667,166.1,24.33,93,68,1.21,RU,2023-04-01 22:45:45
391,porto de moz,-1.7483,-52.2383,73.96,95,99,3.33,BR,2023-04-01 22:45:45
392,swift current,50.2834,-107.8014,40.01,70,0,11.5,CA,2023-04-01 22:45:46
393,abu samrah,35.3029,37.1841,48.88,88,39,9.28,SY,2023-04-01 22:45:46
394,adrar,20.5022,-10.0711,78.22,7,0,10.02,MR,2023-04-01 22:45:46
395,avera,33.194,-82.5271,78.85,43,99,16.17,US,2023-04-01 22:45:46
396,koupela,12.1794,-0.3517,86.94,9,47,4.27,BF,2023-04-01 22:45:46
397,aksu,41.1231,80.2644,46.38,14,0,4.45,CN,2023-04-01 22:45:46
398,duki,30.1541,68.5728,61.21,62,0,3.98,PK,2023-04-01 22:45:46
399,mayo,38.8876,-76.5119,75.15,63,0,10.36,US,2023-04-01 22:45:46
400,grenfell,-33.9,148.1667,61.57,58,2,12.55,AU,2023-04-01 22:45:46
401,tanout,14.9709,8.8879,73.51,10,79,10.49,NE,2023-04-01 22:45:46
402,ancud,-41.8697,-73.8203,53.76,85,77,5.73,CL,2023-04-01 22:45:46
403,porbandar,21.6422,69.6093,75.09,75,21,7.74,IN,2023-04-01 22:45:46
404,del rio,29.3627,-100.8968,89.62,15,0,12.66,US,2023-04-01 22:41:10
405,dharchula,29.85,80.5333,52.41,74,84,4.43,IN,2023-04-01 22:45:46
406,lamu,-2.2717,40.902,82.62,79,14,12.28,KE,2023-04-01 22:45:46
407,boralday,43.3578,76.8594,26.46,46,0,11.18,KZ,2023-04-01 22:45:46
408,russell,32.3502,-85.1999,83.48,39,94,10.42,US,2023-04-01 22:45:47
409,pizarro,4.9533,-77.366,79.38,83,69,3.74,CO,2023-04-01 22:45:47
410,krasnoyarskiy,51.965,59.8967,32.16,73,18,9.33,RU,2023-04-01 22:45:47
411,quchan,37.106,58.5095,41.63,85,86,2.55,IR,2023-04-01 22:45:47
412,beringovskiy,63.05,179.3167,17.49,67,55,19.71,RU,2023-04-01 22:45:47
413,tautira,-17.7333,-149.15,82.69,74,11,13.38,PF,2023-04-01 22:45:47
414,lagunas,-5.2269,-75.6753,74.43,97,85,3.27,PE,2023-04-01 22:45:47
415,kenai,60.5544,-151.2583,37.49,44,0,16.11,US,2023-04-01 22:45:47
416,aykhal,66.0,111.5,7.34,86,100,26.71,RU,2023-04-01 22:45:47
417,carolina,18.3808,-65.9574,80.46,72,20,16.11,PR,2023-04-01 22:41:24
418,gympie,-26.1898,152.665,71.15,58,83,1.99,AU,2023-04-01 22:45:47
419,suntar,62.1444,117.6319,-5.6,97,35,4.52,RU,2023-04-01 22:45:47
420,nantucket,41.2835,-70.0995,51.94,94,100,19.57,US,2023-04-01 22:45:04
421,papetoai,-17.4961,-149.8729,89.19,75,13,12.3,PF,2023-04-01 22:45:47
422,kaka,37.3482,59.6143,51.19,72,100,12.46,TM,2023-04-01 22:45:47
423,cidreira,-30.1811,-50.2056,69.67,63,95,12.62,BR,2023-04-01 22:45:47
424,onega,63.9061,38.1404,8.35,99,84,1.19,RU,2023-04-01 22:45:48
425,sayyan,15.1718,44.3244,59.52,69,100,3.02,YE,2023-04-01 22:45:48
426,atar,20.5169,-13.0499,85.08,7,0,7.87,MR,2023-04-01 22:45:48
427,agaro,7.85,36.65,61.12,94,100,2.24,ET,2023-04-01 22:45:48
428,geraldton,-28.7667,114.6,61.21,94,100,0.0,AU,2023-04-01 22:45:48
429,corrente,-3.7367,-43.3394,72.27,99,100,3.65,BR,2023-04-01 22:45:48
430,abilene,32.4487,-99.7331,75.88,16,0,11.5,US,2023-04-01 22:41:02
431,vardo,70.3705,31.1107,26.58,86,100,29.93,NO,2023-04-01 22:41:57
432,qasigiannguit,68.8193,-51.1922,3.45,90,29,4.85,GL,2023-04-01 22:45:48
433,nioro,13.35,-15.75,79.97,52,91,9.95,GM,2023-04-01 22:45:48
434,presidencia roque saenz pena,-26.7852,-60.4388,78.78,46,56,10.2,AR,2023-04-01 22:45:48
435,kangaatsiaq,68.3065,-53.4641,-6.86,100,95,8.37,GL,2023-04-01 22:45:48
436,marsh harbour,26.5412,-77.0636,76.39,78,32,11.77,BS,2023-04-01 22:45:48
437,san quintin,30.4833,-115.95,59.81,72,0,19.19,MX,2023-04-01 22:45:48
438,maamba,-17.3667,27.15,68.05,77,72,1.99,ZM,2023-04-01 22:45:48
439,inta,66.0317,60.1659,31.91,98,100,13.53,RU,2023-04-01 22:45:48
440,orel-izumrud,43.4583,39.9244,41.02,70,0,7.0,RU,2023-04-01 22:45:48
441,bulnes,-36.7423,-72.2985,81.36,49,93,7.78,CL,2023-04-01 22:45:49
442,loudi,27.7344,111.9944,65.8,91,79,3.94,CN,2023-04-01 22:45:49
443,mitchell,43.7094,-98.0298,39.18,56,0,12.66,US,2023-04-01 22:45:38
444,liyang,29.7057,118.2862,58.28,83,0,1.97,CN,2023-04-01 22:45:49
445,sembe,1.6481,14.5806,73.94,80,57,2.93,CG,2023-04-01 22:45:49
446,shafranovo,53.9667,54.7667,34.18,93,100,4.61,RU,2023-04-01 22:45:49
447,henties bay,-22.116,14.2845,59.9,92,5,1.45,NA,2023-04-01 22:45:49
448,araouane,18.9048,-3.5265,79.84,6,0,8.43,ML,2023-04-01 22:45:49
449,williston,48.147,-103.618,45.34,100,91,6.64,US,2023-04-01 22:45:49
450,siguiri,11.6667,-9.5,90.14,19,89,3.67,GN,2023-04-01 22:45:49
451,san felipe,10.3399,-68.7425,71.37,93,98,5.75,VE,2023-04-01 22:45:49
452,ocampo,21.65,-101.5,79.5,19,86,2.44,MX,2023-04-01 22:45:49
453,karatuzskoye,53.6072,92.8667,5.83,94,24,2.46,RU,2023-04-01 22:45:49
454,dakar,14.6937,-17.4441,79.68,71,0,2.28,SN,2023-04-01 22:45:49
455,piriyapatna,12.3397,76.0992,65.95,75,26,2.77,IN,2023-04-01 22:45:49
456,senneterre,48.3835,-77.2328,17.74,86,100,15.9,CA,2023-04-01 22:42:19
457,hofn,64.2539,-15.2082,38.61,65,0,8.55,IS,2023-04-01 22:45:49
458,pital,2.2665,-75.8044,72.97,80,47,5.14,CO,2023-04-01 22:45:49
459,broken hill,-31.95,141.4333,56.25,48,0,11.79,AU,2023-04-01 22:45:49
460,raton,36.9034,-104.4391,65.01,5,0,25.32,US,2023-04-01 22:45:50
461,catemaco,18.4167,-95.1167,82.76,46,15,8.23,MX,2023-04-01 22:45:50
462,pryozerne,45.2698,36.3303,45.82,78,100,17.74,UA,2023-04-01 22:45:50
463,necochea,-38.5473,-58.7368,58.98,52,62,9.66,AR,2023-04-01 22:45:50
464,zharkent,44.1628,80.0,39.2,32,0,1.77,KZ,2023-04-01 22:45:50
465,rorvik,64.8621,11.2373,26.71,68,28,1.14,NO,2023-04-01 22:45:50
466,nerchinskiy zavod,51.3088,119.61,30.99,85,100,9.46,RU,2023-04-01 22:45:50
467,kloulklubed,7.0419,134.2556,77.5,72,75,1.9,PW,2023-04-01 22:45:50
468,asyut,27.181,31.1837,60.98,36,0,7.29,EG,2023-04-01 22:45:50
469,royan,45.6285,-1.0281,51.85,90,8,12.44,FR,2023-04-01 22:45:50
470,cacoal,-11.4386,-61.4472,73.92,96,87,3.67,BR,2023-04-01 22:45:50
471,alyangula,-13.8483,136.4192,82.96,71,47,4.72,AU,2023-04-01 22:45:50
472,brewster,41.3973,-73.6171,67.26,61,24,5.01,US,2023-04-01 22:45:50
473,bella union,-30.2752,-57.6007,61.36,62,0,4.99,UY,2023-04-01 22:45:50
474,hirara,24.8,125.2833,69.66,77,20,14.97,JP,2023-04-01 22:45:50
475,vinh,18.6667,105.6667,73.45,97,31,0.67,VN,2023-04-01 22:45:51
476,vagur,61.4732,-6.8119,42.12,86,100,18.95,FO,2023-04-01 22:45:51
477,cuervos,32.6314,-114.8556,79.72,9,4,7.72,MX,2023-04-01 22:45:51
478,hoquiam,46.9809,-123.8893,50.95,72,40,18.41,US,2023-04-01 22:45:51
479,banyuwangi,-8.2325,114.3576,75.49,87,100,0.98,ID,2023-04-01 22:45:51
480,hudiksvall,61.729,17.1036,28.85,87,39,4.7,SE,2023-04-01 22:45:51
481,batagay-alyta,67.8006,130.4114,-15.65,81,7,4.29,RU,2023-04-01 22:45:51
482,ankang,32.68,109.0172,60.6,79,52,4.34,CN,2023-04-01 22:45:51
483,birao,10.2849,22.7882,74.39,15,19,5.99,CF,2023-04-01 22:45:51
484,antipovka,49.8299,45.3122,46.0,59,100,5.26,RU,2023-04-01 22:45:51
485,nokaneng,-19.6667,22.2667,70.7,55,8,5.21,BW,2023-04-01 22:45:51
486,kungurtug,50.5994,97.5228,3.87,98,100,1.16,RU,2023-04-01 22:45:51
487,garowe,8.4054,48.4845,78.67,66,21,11.68,SO,2023-04-01 22:45:51
488,deputatskiy,69.3,139.9,-15.14,95,52,4.21,RU,2023-04-01 22:45:51
489,viedma,-40.8135,-62.9967,67.15,28,83,9.66,AR,2023-04-01 22:45:51
490,wageningen,51.9667,5.6667,46.11,94,100,17.27,NL,2023-04-01 22:45:51
491,whitehorse,60.7161,-135.0538,35.1,65,75,16.11,CA,2023-04-01 22:45:22
492,belaya gora,68.5333,146.4167,-8.91,86,81,2.86,RU,2023-04-01 22:45:52
493,longhua,23.6137,114.1919,68.94,99,100,1.23,CN,2023-04-01 22:45:52
494,sorland,67.667,12.6934,35.46,56,17,8.9,NO,2023-04-01 22:45:52
495,saint-louis,16.3333,-15.0,87.76,6,0,11.45,SN,2023-04-01 22:45:52
496,kholodnyy,62.7167,147.95,15.13,91,100,1.14,RU,2023-04-01 22:45:52
497,tual,-5.6667,132.75,81.7,75,100,5.35,ID,2023-04-01 22:45:52
498,abu zabad,12.35,29.25,72.73,10,92,10.85,SD,2023-04-01 22:45:52
499,svetlaya,46.5389,138.3297,38.35,63,5,5.14,RU,2023-04-01 22:45:52
500,tukrah,32.5341,20.5791,64.2,31,16,11.5,LY,2023-04-01 22:45:52
501,porto novo,6.4965,2.6036,84.02,79,93,7.9,BJ,2023-04-01 22:44:29
502,semey,50.4111,80.2275,21.29,48,5,17.47,KZ,2023-04-01 22:43:57
503,calvinia,-31.4707,19.776,70.88,22,0,5.08,ZA,2023-04-01 22:45:52
504,ayagoz,47.9714,80.4392,12.78,70,0,14.05,KZ,2023-04-01 22:45:52
505,angouleme,45.65,0.15,45.03,86,20,4.61,FR,2023-04-01 22:43:08
506,lagoa,39.05,-27.9833,60.49,92,84,25.66,PT,2023-04-01 22:45:52
507,richards bay,-28.783,32.0377,68.85,94,41,3.87,ZA,2023-04-01 22:45:52
508,banda aceh,5.5577,95.3222,78.66,80,76,6.89,ID,2023-04-01 22:45:52
509,ritchie,-29.038,24.6028,67.21,37,26,6.49,ZA,2023-04-01 22:45:52
510,agadez,19.75,10.25,68.85,6,1,7.87,NE,2023-04-01 22:45:53
511,daru,-9.0763,143.2092,82.04,80,61,3.67,PG,2023-04-01 22:45:53
512,gamba,-2.65,10.0,74.66,91,98,4.43,GA,2023-04-01 22:45:53
513,beloha,-25.1667,45.05,72.75,86,99,8.77,MG,2023-04-01 22:45:53
514,coihaique,-45.5752,-72.0662,53.55,50,40,6.91,CL,2023-04-01 22:44:18
515,kudahuvadhoo,2.6708,72.8944,81.54,73,49,4.45,MV,2023-04-01 22:45:53
516,la libertad,-2.2333,-80.9,82.06,89,75,14.97,EC,2023-04-01 22:41:21
517,luena,-11.7833,19.9167,61.09,98,100,2.06,AO,2023-04-01 22:45:53
518,pontianak,-0.0333,109.3333,75.18,94,20,0.0,ID,2023-04-01 22:45:53
519,vostok,46.4856,135.8833,38.79,51,42,2.28,RU,2023-04-01 22:45:53
520,yantal,56.8471,105.2542,-4.68,100,85,1.63,RU,2023-04-01 22:45:53
521,saint-joseph,-21.3667,55.6167,74.46,83,28,9.95,RE,2023-04-01 22:45:53
522,kirkenaer,60.4564,12.0582,22.82,99,65,2.46,NO,2023-04-01 22:45:53
523,gorontalo,0.5412,123.0595,75.9,93,100,3.15,ID,2023-04-01 22:45:53
524,elizabeth city,36.2946,-76.2511,78.82,59,20,24.16,US,2023-04-01 22:45:53
525,lubango,-14.9172,13.4925,58.5,98,94,1.52,AO,2023-04-01 22:44:48
526,media luna,20.1419,-77.435,81.3,66,1,8.99,CU,2023-04-01 22:45:53
527,baykit,61.67,96.37,-10.12,100,91,2.04,RU,2023-04-01 22:45:54
528,mpika,-11.8343,31.4529,57.96,98,100,2.37,ZM,2023-04-01 22:45:54
529,nola,40.922,14.5329,57.06,80,83,3.87,IT,2023-04-01 22:45:54
530,demyansk,57.643,32.466,34.21,98,100,3.44,RU,2023-04-01 22:45:54
531,kabare,-2.4683,28.8242,58.57,96,70,0.47,CD,2023-04-01 22:45:54
532,ust-omchug,61.15,149.6333,21.15,92,97,6.93,RU,2023-04-01 22:45:54
533,donskoye,45.4552,41.9741,37.53,63,97,6.67,RU,2023-04-01 22:45:54
534,anloga,5.7947,0.8973,82.22,80,95,12.15,GH,2023-04-01 22:45:54
535,emmett,43.8735,-116.4993,47.57,65,100,1.01,US,2023-04-01 22:45:54
536,isangel,-19.55,169.2667,84.61,68,5,4.16,VU,2023-04-01 22:45:54
537,chumphon,10.3333,98.8333,69.31,93,37,0.36,TH,2023-04-01 22:45:54
538,tabou,4.423,-7.3528,79.3,88,17,5.35,CI,2023-04-01 22:45:54
539,collie,-33.3667,116.15,54.99,96,10,3.76,AU,2023-04-01 22:45:54
540,podari,44.25,23.7833,49.57,86,75,16.11,RO,2023-04-01 22:45:54
541,saint-francois,46.4154,3.9054,45.84,89,75,6.91,FR,2023-04-01 22:45:54
542,consett,54.854,-1.8316,41.25,90,100,4.9,GB,2023-04-01 22:45:54
543,progreso,21.2833,-89.6667,95.11,74,12,18.39,MX,2023-04-01 22:45:54
544,la peca,-5.6111,-78.435,72.32,81,100,4.14,PE,2023-04-01 22:45:54
545,kuito,-12.3833,16.9333,58.6,96,100,4.81,AO,2023-04-01 22:45:55
546,opuwo,-18.0607,13.84,67.87,46,93,5.46,NA,2023-04-01 22:45:55
547,prince george,53.9166,-122.753,44.29,40,40,4.0,CA,2023-04-01 22:41:37
548,turinsk,58.0458,63.696,33.37,85,99,8.39,RU,2023-04-01 22:45:55
549,pyu,18.4833,96.4333,73.74,81,52,3.87,MM,2023-04-01 22:45:55
550,katete,-0.7818,29.7544,60.12,90,98,3.02,UG,2023-04-01 22:45:55
551,shingu,33.7333,135.9833,61.95,76,100,13.04,JP,2023-04-01 22:45:55
552,tavistock,50.5494,-4.1442,46.65,93,31,4.0,GB,2023-04-01 22:45:55
553,snezhnogorsk,69.1933,33.2531,24.58,80,100,18.3,RU,2023-04-01 22:45:55
554,khandyga,62.6667,135.6,-0.09,92,98,4.92,RU,2023-04-01 22:45:55
555,joensuu,62.6012,29.7632,19.89,58,0,4.61,FI,2023-04-01 22:45:56
556,oparino,59.8518,48.2783,28.94,97,68,5.79,RU,2023-04-01 22:45:56
557,paita,-5.0892,-81.1144,81.81,74,94,10.74,PE,2023-04-01 22:45:56
558,saint anthony,45.0205,-93.218,38.82,56,0,6.91,US,2023-04-01 22:45:56
559,butajira,8.1167,38.3667,56.26,90,97,7.52,ET,2023-04-01 22:45:56
560,novyy urengoy,66.0833,76.6333,32.74,98,100,17.65,RU,2023-04-01 22:45:56
561,porgera,-5.4667,143.2,52.48,73,18,0.6,PG,2023-04-01 22:45:56
562,kasongo,-4.45,26.6667,66.85,96,73,2.17,CD,2023-04-01 22:45:56
563,sembakung,3.8167,117.25,73.47,99,100,0.89,ID,2023-04-01 22:45:56
564,narsaq,60.9167,-46.05,28.62,77,57,8.72,GL,2023-04-01 22:45:56
565,tessalit,20.1986,1.0114,77.13,9,0,10.22,ML,2023-04-01 22:45:56
566,talakan,50.3167,130.3667,42.85,57,100,6.64,RU,2023-04-01 22:45:57
567,capreol,46.706,-80.9225,27.07,46,20,23.02,CA,2023-04-01 22:45:57
568,la ronge,55.1001,-105.2842,28.65,59,75,16.11,CA,2023-04-01 22:45:57
569,sola,-13.8833,167.55,82.89,71,68,9.13,VU,2023-04-01 22:45:57
570,murray bridge,-35.1167,139.2667,53.13,60,0,4.47,AU,2023-04-01 22:45:57
571,celestun,20.8667,-90.4,80.96,76,18,17.4,MX,2023-04-01 22:45:58
572,komsomolets,53.7453,62.0708,28.65,79,8,9.13,KZ,2023-04-01 22:45:58
573,dawlatabad,36.4141,64.9053,65.19,54,53,3.6,AF,2023-04-01 22:45:59
574,cerveteri,41.9926,12.0924,55.27,92,22,5.19,IT,2023-04-01 22:45:59
575,trudobelikovskiy,45.2686,38.1631,40.64,57,31,7.0,RU,2023-04-01 22:45:59
576,mehamn,71.0357,27.8492,26.51,86,100,31.07,NO,2023-04-01 22:45:59
577,terrace,54.5163,-128.6035,39.11,75,75,4.61,CA,2023-04-01 22:45:59
578,buraydah,26.326,43.975,66.65,20,53,6.71,SA,2023-04-01 22:45:22
579,kozhva,65.1073,57.0459,30.11,97,100,7.25,RU,2023-04-01 22:45:59
